City_ID,City,Lat,Lng,Max Temp,Humidity,Cloudiness,Wind Speed,Country,Date
0,college,64.8569,-147.8028,48.52,41,20,4.61,US,1712800589
1,isafjordur,66.0755,-23.124,25.27,88,92,4.16,IS,1712800589
2,grytviken,-54.2811,-36.5092,34.12,95,32,14.61,GS,1712800590
3,vung tau,10.346,107.0843,84.65,71,10,23.8,VN,1712800590
4,blackmans bay,-43.0167,147.3167,59.52,61,47,1.99,AU,1712800591
5,margaret river,-33.95,115.0667,68.97,45,100,9.17,AU,1712800591
6,tweed heads,-28.1817,153.547,81.21,54,0,11.5,AU,1712800591
7,seria,4.6167,114.3167,86.22,74,86,4.36,BN,1712800592
8,lihue,21.9789,-159.3672,81.64,69,0,11.5,US,1712800592
9,ushuaia,-54.8,-68.3,44.26,76,20,21.85,AR,1712800324
10,el nido,11.1858,119.3956,83.82,74,93,14.99,PH,1712800593
11,ribeira grande,38.5167,-28.7,63.77,94,75,31.0,PT,1712800593
12,cidreira,-30.1811,-50.2056,71.89,76,100,7.76,BR,1712800593
13,lobito,-12.3481,13.5456,76.91,87,81,3.76,AO,1712800594
14,peniche,39.3558,-9.3811,60.12,59,100,11.56,PT,1712800594
15,la passe,45.5549,-0.8967,53.98,78,100,4.34,FR,1712800594
16,avarua,-21.2078,-159.775,84.25,79,40,19.57,CK,1712800595
17,fortuna,40.5982,-124.1573,56.66,86,0,11.5,US,1712800595
18,sitka,57.0531,-135.33,37.29,87,100,6.91,US,1712800595
19,meadow lake,34.8014,-106.5436,66.25,14,0,10.87,US,1712800596
20,sao felix do xingu,-6.6447,-51.995,73.31,95,74,0.96,BR,1712800596
21,tezu,27.9167,96.1667,82.26,27,0,1.97,IN,1712800596
22,huarmey,-10.0681,-78.1522,73.0,81,88,8.03,PE,1712800597
23,bethel,41.3712,-73.414,57.42,81,100,3.44,US,1712800432
24,sola,-13.8833,167.55,81.86,76,90,3.27,VU,1712800597
25,rikaze,29.25,88.8833,37.98,31,0,1.61,CN,1712800598
26,la ronge,55.1001,-105.2842,44.85,61,40,14.97,CA,1712800598
27,albany,42.6001,-73.9662,53.92,95,100,2.86,US,1712800595
28,dehui,44.5333,125.7,58.15,56,100,15.75,CN,1712800599
29,dudinka,69.4058,86.1778,-18.4,100,100,2.77,RU,1712800599
30,saipan,15.1355,145.701,88.5,62,40,20.71,MP,1712800600
31,yichang,30.7144,111.2847,66.04,72,78,1.39,CN,1712800600
32,adamstown,-25.066,-130.1015,71.4,88,100,23.09,PN,1712800600
33,puerto ayora,-0.7393,-90.3518,77.56,99,81,4.41,EC,1712800601
34,grand falls-windsor,48.9332,-55.6649,31.5,90,67,4.0,CA,1712800493
35,nova vicosa,-17.8919,-39.3719,77.77,84,6,5.44,BR,1712800413
36,waitangi,-43.9535,-176.5597,63.82,86,100,11.01,NZ,1712800602
37,mar del plata,-38.0023,-57.5575,59.09,67,75,15.01,AR,1712800307
38,anadyr,64.75,177.4833,18.1,72,40,20.13,RU,1712800602
39,nova sintra,14.8667,-24.7167,72.63,77,11,21.99,CV,1712800603
40,madimba,-10.4,40.3333,79.92,94,40,2.3,TZ,1712800603
41,port-aux-francais,-49.35,70.2167,44.47,95,100,14.32,TF,1712800603
42,tiksi,71.6872,128.8694,7.29,87,98,6.58,RU,1712800603
43,olonkinbyen,70.9221,-8.7187,19.22,71,100,11.95,SJ,1712800604
44,hithadhoo,-0.6,73.0833,85.5,69,100,8.12,MV,1712800604
45,vilyuchinsk,52.9306,158.4028,39.47,75,40,38.27,RU,1712800604
46,longyearbyen,78.2186,15.6401,4.84,72,20,5.75,SJ,1712800577
47,utrik,11.2278,169.8474,79.88,79,97,23.31,MH,1712800606
48,haiku-pauwela,20.9219,-156.3051,84.22,62,20,13.8,US,1712800606
49,bamboo flat,11.7,92.7167,86.09,84,40,2.3,IN,1712800606
50,nogliki,51.8333,143.1667,46.35,67,0,13.0,RU,1712800606
51,arraial do cabo,-22.9661,-42.0278,77.14,88,0,12.26,BR,1712800570
52,iqaluit,63.7506,-68.5145,26.33,79,100,9.22,CA,1712800607
53,puerto natales,-51.7236,-72.4875,36.86,90,8,5.23,CL,1712800608
54,ambon,-3.6954,128.1814,86.88,95,40,4.61,ID,1712800608
55,mwanza,-2.5167,32.9,68.13,90,37,3.62,TZ,1712800608
56,ilulissat,69.2167,-51.1,12.99,85,100,4.32,GL,1712800609
57,edinburgh of the seven seas,-37.0676,-12.3116,64.15,80,100,5.03,SH,1712800609
58,invercargill,-46.4,168.35,49.01,98,100,10.0,NZ,1712800609
59,qaqortoq,60.7167,-46.0333,22.21,94,94,3.29,GL,1712800610
60,eyl,7.9803,49.8164,81.61,74,88,10.2,SO,1712800610
61,tralee,52.2704,-9.7026,50.7,96,29,6.29,IE,1712800610
62,tofol,5.3248,163.0078,89.38,74,75,17.27,FM,1712800611
63,pachperwa,27.5167,82.65,79.75,12,9,3.33,IN,1712800611
64,hammerfest,70.6634,23.6821,36.05,100,100,8.05,NO,1712800611
65,villa gesell,-37.2639,-56.973,58.12,55,100,14.85,AR,1712800612
66,manokwari,-0.8667,134.0833,79.65,84,100,2.15,ID,1712800612
67,mount pearl,47.5166,-52.7813,31.14,83,100,11.5,CA,1712800543
68,stanley,54.868,-1.6985,55.42,87,40,19.57,GB,1712800613
69,markaz-e woluswali-ye achin,34.1258,70.7078,62.13,63,45,2.21,AF,1712800613
70,saint-philippe,-21.3585,55.7679,74.79,82,66,10.51,RE,1712800614
71,georgetown,5.4112,100.3354,85.93,74,20,6.91,MY,1712800438
72,mirabad,30.4362,61.8383,70.14,28,88,2.95,AF,1712800614
73,atafu village,-8.5421,-172.5159,86.02,73,46,9.06,TK,1712800615
74,constantia,44.1833,28.65,50.7,60,0,8.7,RO,1712800615
75,kirkland lake,48.1446,-80.0377,41.29,75,16,1.14,CA,1712800615
76,kenai,60.5544,-151.2583,39.29,60,75,11.5,US,1712800616
77,rio grande,-32.035,-52.0986,68.23,74,100,19.75,BR,1712800479
78,old town,50.087,14.4202,45.28,93,0,4.61,CZ,1712800617
79,christchurch,-43.5333,172.6333,76.48,65,40,17.27,NZ,1712800358
80,punta arenas,-53.15,-70.9167,42.91,81,40,14.97,CL,1712800617
81,el charco,2.4769,-78.1105,77.85,87,89,3.04,CO,1712800618
82,bilibino,68.0546,166.4372,11.68,74,10,2.01,RU,1712800618
83,thompson,55.7435,-97.8558,46.56,53,100,5.75,CA,1712800618
84,la gi,10.6667,107.7833,87.73,59,23,22.21,VN,1712800619
85,badger,64.8,-147.5333,48.45,38,20,4.61,US,1712800619
86,yellowknife,62.456,-114.3525,32.41,88,20,11.5,CA,1712800619
87,lushun,38.8,121.2667,62.82,81,0,5.26,CN,1712800620
88,sogndal,61.2283,7.1003,41.38,80,100,6.91,NO,1712800620
89,ola,59.5833,151.2833,27.14,61,52,2.24,RU,1712800621
90,bredasdorp,-34.5322,20.0403,58.53,67,23,12.84,ZA,1712800621
91,afaahiti,-17.75,-149.2833,85.87,83,100,17.87,PF,1712800621
92,puerto ayacucho,5.6639,-67.6236,88.0,49,66,4.32,VE,1712800622
93,san antonio de pale,-1.4014,5.6325,82.69,81,100,8.61,GQ,1712800622
94,novoagansk,61.9449,76.6625,-4.27,94,41,4.61,RU,1712800622
95,montevideo,-34.8335,-56.1674,59.02,55,75,17.27,UY,1712800420
96,caleta de carquin,-11.0925,-77.6267,71.64,84,98,8.19,PE,1712800623
97,fort st. john,56.2499,-120.8529,44.49,36,75,14.97,CA,1712800579
98,khandyga,62.6667,135.6,29.5,85,80,5.32,RU,1712800624
99,thurgoona,-36.0451,146.9919,68.65,100,0,1.99,AU,1712800624
100,merritt,50.1123,-120.7942,46.8,57,100,4.25,CA,1712800624
101,al wafrah,28.6392,47.9306,72.19,36,51,9.19,KW,1712800624
102,margate,51.3813,1.3862,54.88,92,100,5.01,GB,1712800337
103,port elizabeth,-33.918,25.5701,58.32,88,0,5.75,ZA,1712800625
104,minas de marcona,-15.2119,-75.1103,63.19,83,100,12.06,PE,1712800625
105,napili-honokowai,20.9708,-156.6705,85.35,70,36,17.05,US,1712800626
106,cabo san lucas,22.8909,-109.9124,73.71,42,20,10.0,MX,1712800535
107,keflavik,64.0049,-22.5624,39.11,87,75,18.41,IS,1712800626
108,prudnik,50.3212,17.5746,49.78,89,100,3.87,PL,1712800626
109,i-n-salah,27.1935,2.4607,73.18,32,0,20.6,DZ,1712800627
110,saldanha,-33.0117,17.9442,59.05,75,0,15.03,ZA,1712800627
111,upata,8.0086,-62.3989,79.2,69,22,7.85,VE,1712800627
112,ust-nera,64.5667,143.2,20.46,84,100,8.99,RU,1712800627
113,vila velha,-20.3297,-40.2925,76.95,96,40,4.61,BR,1712800628
114,nieuw amsterdam,5.8833,-55.0833,78.96,88,100,11.56,SR,1712800628
115,petoskey,45.3733,-84.9553,51.73,78,0,0.0,US,1712800629
116,port lincoln,-34.7333,135.8667,61.75,64,98,8.34,AU,1712800629
117,palangkaraya,-2.2,113.8333,86.88,62,49,3.33,ID,1712800456
118,klyuchi,52.2667,79.1667,36.73,98,100,4.41,RU,1712800630
119,weno,7.4515,151.8468,80.55,100,100,11.5,FM,1712800630
120,guadalajara,20.6667,-103.3333,70.12,19,3,5.3,MX,1712800621
121,vorgashor,67.5833,63.95,-11.88,100,100,4.74,RU,1712800630
122,praia da vitoria,38.7333,-27.0667,64.65,88,75,14.7,PT,1712800631
123,mount gambier,-37.8333,140.7667,58.8,59,100,6.64,AU,1712800631
124,susuman,62.7833,148.1667,9.99,77,71,3.0,RU,1712800631
125,la'ie,21.6477,-157.9253,83.05,77,60,8.01,US,1712800632
126,keren,15.7778,38.4581,69.73,71,13,5.08,ER,1712800632
127,mumford,5.2618,-0.759,80.69,83,100,7.52,GH,1712800632
128,port mathurin,-19.6833,63.4167,80.1,78,31,10.89,MU,1712800633
129,whitehorse,60.7161,-135.0538,45.37,33,40,6.91,CA,1712800633
130,port alfred,-33.5906,26.891,60.89,69,51,13.38,ZA,1712800633
131,petropavlovsk-kamchatsky,53.0452,158.6483,37.99,70,20,35.99,RU,1712800633
132,tbeng meanchey,13.8167,104.9667,92.59,31,12,7.23,KH,1712800634
133,mugia,43.1041,-9.2179,55.71,77,100,11.27,ES,1712800634
134,horta,38.5333,-28.6333,63.01,96,75,31.0,PT,1712800634
135,nemuro,43.3236,145.575,41.76,65,3,12.3,JP,1712800635
136,papatowai,-46.5619,169.4708,48.79,97,100,15.21,NZ,1712800635
137,maneromango,-7.1988,38.7848,71.87,90,100,2.06,TZ,1712800635
138,hamilton,39.1834,-84.5333,62.55,96,100,10.36,US,1712800538
139,toamasina,-18.1667,49.3833,78.17,89,52,9.82,MG,1712800636
140,cole harbour,44.6724,-63.4751,36.88,80,98,1.01,CA,1712800636
141,san patricio,28.017,-97.5169,74.84,42,0,19.3,US,1712800637
142,hermanus,-34.4187,19.2345,57.79,72,3,18.28,ZA,1712800637
143,san luis de la loma,17.2706,-100.8939,76.23,83,51,6.93,MX,1712800638
144,valparaiso,-33.0393,-71.6273,62.01,62,100,4.61,CL,1712800481
145,luderitz,-26.6481,15.1594,69.08,51,0,9.37,NA,1712800638
146,wynyard,-41.0,145.7167,58.91,59,22,6.4,AU,1712800639
147,el triunfo,-1.9333,-79.9667,87.84,82,96,4.43,EC,1712800639
148,tazovsky,67.4667,78.7,-18.35,99,69,5.01,RU,1712800639
149,new norfolk,-42.7826,147.0587,60.71,43,51,2.57,AU,1712800639
150,tuxpan,19.55,-103.4,71.37,61,0,4.14,MX,1712800640
151,piacabucu,-10.4056,-36.4344,80.11,82,15,5.39,BR,1712800640
152,gafargaon,24.4333,90.5667,82.92,40,67,6.29,BD,1712800640
153,kruisfontein,-34.0033,24.7314,52.88,76,70,5.03,ZA,1712800641
154,west island,-12.1568,96.8225,82.38,69,40,11.5,CC,1712800641
155,mossel bay,-34.1831,22.146,55.33,74,68,10.85,ZA,1712800641
156,douglas,41.3,-96.167,66.02,38,0,12.66,US,1712800375
157,rechka-vydrino,51.485,104.8461,39.92,90,100,3.65,RU,1712800642
158,wuchuan,21.4571,110.7659,77.83,80,100,14.23,CN,1712800642
159,nikolayevsk-on-amure,53.1406,140.73,46.22,55,2,5.01,RU,1712800643
160,alesund,62.4723,6.1549,45.52,75,75,9.22,NO,1712800643
161,juneau,58.3019,-134.4197,42.8,90,100,10.36,US,1712800643
162,selfoss,63.9331,-20.9971,37.04,88,100,19.44,IS,1712800643
163,hadibu,12.65,54.0333,79.72,79,0,6.58,YE,1712800644
164,jackson,42.4165,-122.8345,75.07,30,0,4.61,US,1712800428
165,laboulaye,-34.1266,-63.3912,51.71,76,100,6.02,AR,1712800644
166,talnakh,69.4865,88.3972,-15.68,99,91,3.89,RU,1712800645
167,hawaiian paradise park,19.5933,-154.9731,78.31,81,40,9.22,US,1712800645
168,peterhead,57.5058,-1.7981,55.8,79,75,22.7,GB,1712800645
169,nema,57.5067,50.5011,29.62,96,59,4.88,RU,1712800646
170,ixtapa,20.7,-105.2,72.23,81,10,4.0,MX,1712800646
171,mikuni,36.2171,136.1519,60.71,63,100,8.95,JP,1712800647
172,bereznik,62.8551,42.7072,42.89,97,100,10.85,RU,1712800647
173,malpica,43.3228,-8.8105,51.33,76,99,3.33,ES,1712800647
174,harper,4.375,-7.7169,81.27,81,100,4.05,LR,1712800648
175,singrauli,24.1997,82.6753,78.8,38,100,4.63,IN,1712800648
176,kill devil hills,36.0307,-75.676,66.22,74,40,11.5,US,1712800648
177,sainte-rose,16.3324,-61.6979,80.19,88,48,6.91,GP,1712800649
178,saint-pierre,-21.3393,55.4781,74.88,69,0,8.05,RE,1712800406
179,iskateley,67.6803,53.1512,16.02,93,100,15.99,RU,1712800649
180,vernon,50.2581,-119.2691,59.36,37,99,2.3,CA,1712800515
181,mazagao,-0.115,-51.2894,82.45,96,73,3.06,BR,1712800650
182,kirkwall,58.9848,-2.9587,50.05,93,100,25.32,GB,1712800396
183,dunedin,-45.8742,170.5036,53.8,97,100,8.99,NZ,1712800388
184,bubaque,11.2833,-15.8333,74.95,74,1,15.77,GW,1712800651
185,lishu,43.3047,124.3278,60.78,45,20,19.6,CN,1712800651
186,bardai,11.65,7.2333,80.17,23,22,8.5,NG,1712800651
187,monrovia,6.3005,-10.7969,80.29,87,100,1.7,LR,1712800651
188,pizarro,4.9533,-77.366,79.36,89,96,3.56,CO,1712800652
189,jumla,29.2747,82.1838,50.59,31,2,1.77,NP,1712800652
190,chernomorskoye,45.5039,32.6997,53.17,69,6,8.95,UA,1712800652
191,alofi,-19.0595,-169.9187,85.89,70,75,13.8,NU,1712800653
192,tabas,33.5959,56.9244,71.82,21,45,4.61,IR,1712800653
193,yuzhno-kurilsk,44.0306,145.8556,40.37,76,100,8.95,RU,1712800653
194,uturoa,-16.7333,-151.4333,84.7,76,30,18.23,PF,1712800653
195,vilyuysk,63.7553,121.6247,28.99,93,100,7.0,RU,1712800654
196,haimen,23.1935,116.6142,73.29,77,98,9.51,CN,1712800654
197,aswan,24.0934,32.907,67.3,27,0,0.0,EG,1712800654
198,madalena,41.2162,-8.3345,55.29,84,100,3.91,PT,1712800655
199,kon tum,14.35,108.0,87.58,34,0,4.59,VN,1712800655
200,puerto san jose,13.9256,-90.8244,83.77,72,34,2.35,GT,1712800655
201,flying fish cove,-10.4217,105.6791,82.08,78,40,9.22,CX,1712800655
202,holmsund,63.706,20.3641,42.75,60,99,14.0,SE,1712800656
203,gaigeturi,33.4644,126.3183,60.85,82,100,5.75,KR,1712800656
204,palu,-0.8917,119.8707,87.03,71,79,3.47,ID,1712800656
205,roma,43.2128,-75.4557,57.87,96,100,3.44,US,1712800657
206,plymouth,41.8334,-70.8328,53.62,85,100,8.05,US,1712800553
207,pokachi,61.7198,75.3683,-2.29,95,41,4.94,RU,1712800657
208,tomatlan,19.9333,-105.25,66.85,82,0,2.89,MX,1712800657
209,raja,8.4596,25.678,77.47,20,72,1.3,SS,1712800658
210,alaghsas,17.0187,8.0168,81.9,14,8,7.11,NE,1712800658
211,kingston,17.997,-76.7936,83.35,70,20,18.41,JM,1712800534
212,waihee-waiehu,20.9249,-156.5076,85.5,60,20,15.01,US,1712800659
213,linjiang,41.8069,126.9078,45.64,79,100,5.79,CN,1712800659
214,kone,-21.0595,164.8658,75.43,97,100,4.34,NC,1712800659
215,kosh-agach,50.0,88.6667,29.3,91,100,1.99,RU,1712800660
216,saint-francois,46.4154,3.9054,36.41,99,0,0.0,FR,1712800657
217,rongelap,11.1635,166.8941,80.1,76,100,23.09,MH,1712800660
218,le vauclin,14.5452,-60.8388,80.65,78,20,8.05,MQ,1712800440
219,codrington,-38.2667,141.9667,59.07,63,100,10.25,AU,1712800661
220,tocopilla,-22.092,-70.1979,68.74,82,92,5.53,CL,1712800661
221,bria,6.5423,21.9863,74.39,58,65,2.28,CF,1712800662
222,itoman,26.1247,127.6694,77.09,72,20,12.66,JP,1712800662
223,murud,18.3258,72.965,78.28,67,2,5.48,IN,1712800662
224,ketchikan,55.3422,-131.6461,42.78,93,100,5.75,US,1712800644
225,dubai,25.2582,55.3047,77.25,50,0,9.22,AE,1712800548
226,bulata,9.8599,122.4016,85.5,60,78,13.02,PH,1712800663
227,carnarvon,-24.8667,113.6333,78.22,47,5,25.08,AU,1712800664
228,beyneu,45.3167,55.2,60.44,47,43,7.38,KZ,1712800664
229,cockburn town,21.4612,-71.1419,77.05,71,100,24.72,TC,1712800664
230,shagonar,51.5333,92.8,43.14,72,99,4.23,RU,1712800665
231,januaria,-15.4833,-44.3667,76.41,72,98,1.45,BR,1712800553
232,palmer,42.1584,-72.3287,56.07,71,100,6.91,US,1712800665
233,inhambane,-23.865,35.3833,73.45,74,100,11.12,MZ,1712800666
234,broome,42.2506,-75.833,58.46,90,75,5.75,US,1712800666
235,tianchang,37.9981,114.0156,75.92,31,0,5.93,CN,1712800666
236,lompoc,34.6391,-120.4579,73.54,86,0,10.36,US,1712800666
237,abepura,-2.6333,140.5833,83.21,74,40,3.44,ID,1712800667
238,tabou,4.423,-7.3528,80.69,84,100,4.83,CI,1712800667
239,enewetak,11.3474,162.3373,80.78,80,100,22.41,MH,1712800667
240,puntarenas,9.9763,-84.8384,79.23,89,100,3.51,CR,1712800664
241,guijuelo,40.5576,-5.6707,45.64,82,68,4.68,ES,1712800668
242,sao jose da coroa grande,-8.8978,-35.1478,79.29,85,100,1.5,BR,1712800668
243,kununurra,-15.7667,128.7333,84.18,34,52,17.27,AU,1712800669
244,saint-joseph,-21.3667,55.6167,73.78,78,63,5.61,RE,1712800669
245,el calafate,-50.3408,-72.2768,41.67,81,2,3.47,AR,1712800669
246,novovarshavka,54.1721,74.6946,33.22,96,100,9.89,RU,1712800670
247,ryotsu-minato,38.0833,138.4333,56.05,53,100,2.59,JP,1712800670
248,catemaco,18.4167,-95.1167,69.75,86,98,6.51,MX,1712800670
249,fisterra,42.9049,-9.2629,56.79,76,100,8.75,ES,1712800671
250,tolanaro,-25.0319,46.9987,80.67,65,40,10.36,MG,1712800671
251,sechura,-5.5569,-80.8222,75.99,68,33,13.13,PE,1712800672
252,galliano,29.4422,-90.2992,71.6,83,40,11.5,US,1712800672
253,carbonear,47.7332,-53.2148,32.41,82,73,12.03,CA,1712800672
254,armacao de buzios,-22.7469,-41.8817,78.85,92,0,10.18,BR,1712800673
255,nur-sultan,51.1801,71.446,35.55,87,100,8.95,KZ,1712800636
256,astravyets,54.6138,25.9554,44.85,79,100,10.18,BY,1712800673
257,priyutovo,53.9,53.9333,37.35,93,11,5.53,RU,1712800673
258,meulaboh,4.1363,96.1285,81.28,83,100,1.41,ID,1712800674
259,brisas de zicatela,15.8369,-97.0419,79.12,77,88,4.38,MX,1712800674
260,trincomalee,8.5711,81.2335,83.71,74,100,9.71,LK,1712800675
261,embarcacion,-23.209,-64.096,68.22,98,100,10.0,AR,1712800675
262,wailua homesteads,22.0669,-159.378,81.03,76,0,11.5,US,1712800675
263,chonchi,-42.6128,-73.8092,45.12,79,0,1.48,CL,1712800676
264,burang,30.25,81.1667,17.92,83,39,2.24,CN,1712800676
265,tyukalinsk,55.8732,72.1967,27.03,81,100,9.62,RU,1712800676
266,noumea,-22.2763,166.4572,75.18,94,99,9.17,NC,1712800509
267,jhawarian,32.3614,72.6228,77.43,30,58,4.9,PK,1712800677
268,talara,-4.5772,-81.2719,79.56,65,0,11.5,PE,1712800678
269,nadym,65.5333,72.5167,-11.9,98,82,2.75,RU,1712800678
270,roanoke rapids,36.4615,-77.6542,64.31,100,100,3.44,US,1712800678
271,rodolfo sanchez taboada,31.7167,-116.5667,63.1,72,7,1.01,MX,1712800679
272,tommot,58.9564,126.2925,34.54,98,7,3.33,RU,1712800679
273,havre,49.5833,0.3333,54.0,87,100,12.66,FR,1712800679
274,kinna,57.5073,12.6946,44.56,86,96,9.42,SE,1712800679
275,east london,-33.0153,27.9116,60.85,75,66,12.5,ZA,1712800680
276,novyy urgal,51.0736,132.5642,46.53,42,4,6.46,RU,1712800680
277,fale old settlement,-9.3852,-171.2468,86.11,73,24,7.25,TK,1712800680
278,at-bashi,41.1702,75.8106,42.76,44,0,1.01,KG,1712800681
279,aripuana,-9.1667,-60.6333,74.64,99,86,2.3,BR,1712800661
280,murghob,38.1702,73.9667,20.75,72,81,5.66,TJ,1712800681
281,santo antonio,-6.3106,-35.4789,76.3,94,84,2.59,BR,1712800681
282,zayed city,24.3768,54.589,82.0,65,0,3.44,AE,1712800682
283,sudak,44.85,34.9667,51.22,77,4,9.82,UA,1712800625
284,emerald,-23.5333,148.1667,76.33,28,0,13.04,AU,1712800433
285,san-pedro,4.7485,-6.6363,80.02,86,67,4.14,CI,1712800683
286,nyurba,63.2842,118.3319,18.5,89,100,11.23,RU,1712800683
287,swakopmund,-22.6833,14.5333,54.45,86,0,3.44,NA,1712800683
288,aasiaat,68.7098,-52.8699,15.21,82,100,3.62,GL,1712800683
289,jamestown,42.097,-79.2353,58.64,59,100,3.44,US,1712800403
290,kailua-kona,19.6406,-155.9956,82.36,74,40,10.36,US,1712800599
291,brookings,44.3114,-96.7984,52.38,71,89,6.42,US,1712800684
292,westport,41.1415,-73.3579,56.75,85,100,11.5,US,1712800529
293,crane,31.3974,-102.3501,64.94,25,0,9.69,US,1712800685
294,baharly,38.4362,57.4316,64.17,37,100,3.71,TM,1712800685
295,ernee,48.2976,-0.9314,51.35,99,100,7.45,FR,1712800685
296,alice springs,-23.7,133.8833,72.21,30,5,13.8,AU,1712800686
297,sabang,5.8933,95.3214,84.29,74,78,16.96,ID,1712800686
298,nezhinka,51.7676,55.3694,39.36,100,0,4.47,RU,1712800686
299,hami,42.8,93.45,58.84,37,7,15.28,CN,1712800687
300,cova figueira,14.8905,-24.2934,61.86,78,9,12.46,CV,1712800687
301,bargi,22.9833,79.8667,74.17,54,100,11.65,IN,1712800687
302,basco,20.4487,121.9702,79.29,81,8,15.37,PH,1712800688
303,gisborne,-38.6533,178.0042,73.18,59,100,14.52,NZ,1712800688
304,jalandhar,31.3256,75.5792,79.92,19,98,7.2,IN,1712800688
305,praia,14.9215,-23.5087,72.14,68,20,12.66,CV,1712800547
306,sao cristovao,-11.0147,-37.2064,85.91,74,40,6.91,BR,1712800409
307,fort mcmurray,56.7268,-111.381,49.59,46,0,10.36,CA,1712800689
308,prado,-17.3411,-39.2208,77.83,88,5,4.99,BR,1712800670
309,udachny,66.4167,112.4,-12.55,93,82,17.76,RU,1712800690
310,fort wellington,6.4,-57.6,79.23,85,10,10.22,GY,1712800690
311,singojuruh,-8.3167,114.2333,86.14,65,99,4.65,ID,1712800690
312,kokopo,-4.352,152.2633,78.46,89,100,0.11,PG,1712800691
313,tsengel,49.4783,100.8894,44.38,34,14,4.29,MN,1712800691
314,ilha de mocambique,-15.0342,40.7358,79.61,87,100,5.41,MZ,1712800691
315,kapuskasing,49.4169,-82.4331,44.69,87,20,3.44,CA,1712800682
316,queenstown,-31.8976,26.8753,48.69,83,76,5.28,ZA,1712800692
317,portel,-1.9356,-50.8211,76.64,93,92,2.04,BR,1712800692
318,taroa,8.7058,171.2275,81.41,79,85,20.47,MH,1712800693
319,camiri,-20.05,-63.5167,70.38,99,100,3.15,BO,1712800693
320,kirensk,57.7853,108.1119,36.97,98,100,8.01,RU,1712800693
321,tura,25.5198,90.2201,85.26,25,100,1.07,IN,1712800694
322,lebu,-37.6167,-73.65,53.4,72,94,2.73,CL,1712800694
323,fuerte olimpo,-21.0415,-57.8738,80.92,69,78,3.56,PY,1712800694
324,remire-montjoly,4.9167,-52.2667,82.44,83,40,9.22,GF,1712800694
325,belyy yar,53.6039,91.3903,39.09,81,40,8.95,RU,1712800695
326,hell-ville,-13.4,48.2667,79.83,87,100,8.23,MG,1712800695
327,votkinsk,57.0486,53.9872,34.77,90,75,2.1,RU,1712800695
328,thames,-37.1333,175.5333,67.14,90,100,11.79,NZ,1712800696
329,kamikawa,43.84,142.7711,50.27,50,8,8.01,JP,1712800696
330,kerikeri,-35.2268,173.9474,69.91,93,100,17.74,NZ,1712800696
331,chui,-33.6971,-53.4616,59.81,63,84,11.77,UY,1712800697
332,gobabis,-22.45,18.9667,59.32,50,0,8.23,NA,1712800697
333,ayr,55.4627,-4.6339,54.32,100,75,21.85,GB,1712800697
334,palikir - national government center,6.9248,158.1611,88.65,89,100,5.75,FM,1712800698
335,salinopolis,-0.6136,-47.3561,80.28,86,100,8.08,BR,1712800503
336,adam,22.3756,57.5233,79.18,53,100,6.8,OM,1712800698
337,tyuratam,45.6507,63.3156,55.15,50,25,6.6,KZ,1712800699
338,kulunda,52.566,78.9385,35.94,99,100,4.23,RU,1712800699
339,mineiros,-17.5694,-52.5511,70.29,92,100,3.38,BR,1712800699
340,gobernador roca,-27.1864,-55.4643,69.4,99,100,3.29,AR,1712800699
341,norton,-17.8833,30.7,68.27,94,100,7.47,ZW,1712800409
342,kapit,2.0167,112.9333,82.63,84,67,1.72,MY,1712800700
343,kendari,-3.945,122.4989,86.2,67,95,1.41,ID,1712800567
344,kesabpur,22.9167,89.2167,87.49,33,91,3.29,BD,1712800701
345,dolisie,-4.1997,12.6739,72.99,99,100,1.7,CG,1712800701
346,nar'yan-mar,67.6713,53.087,16.11,93,100,15.99,RU,1712800507
347,fada,9.5667,8.3,77.76,33,100,3.49,NG,1712800702
348,daru,-9.0763,143.2092,81.5,85,100,4.07,PG,1712800702
349,turuntayevo,52.2,107.6167,41.09,98,100,2.48,RU,1712800702
350,ivdel',60.6911,60.4206,27.19,97,100,1.01,RU,1712800703
351,kadur,13.5533,76.0131,78.26,56,84,2.37,IN,1712800703
352,yuanping,38.7153,112.7575,63.52,46,0,3.11,CN,1712800703
353,callao,-12.0667,-77.15,77.72,73,0,9.22,PE,1712800601
354,ebon,4.582,168.6964,82.22,83,100,15.17,MH,1712800704
355,palembang,-2.9167,104.7458,77.09,94,40,4.61,ID,1712800704
356,ishikawa,26.4233,127.8214,77.04,71,40,12.66,JP,1712800704
357,betioky,-23.7167,44.3833,71.64,95,82,4.88,MG,1712800705
358,chibougamau,49.9168,-74.3659,42.42,56,40,4.61,CA,1712800705
359,adi keyh,14.8444,39.3772,62.46,76,13,2.73,ER,1712800705
360,pingliang,35.5392,106.6861,61.18,49,20,10.56,CN,1712800706
361,kodiak,57.79,-152.4072,36.91,52,100,9.22,US,1712800706
362,senanga,-16.1167,23.2667,67.15,89,100,2.21,ZM,1712800706
363,poxoreo,-15.8372,-54.3892,75.2,93,99,2.66,BR,1712800707
364,inarajan village,13.2736,144.7484,88.77,84,96,18.23,GU,1712800707
365,khanty-mansiysk,61.0042,69.0019,15.91,53,20,6.71,RU,1712800707
366,de aar,-30.6497,24.0123,50.83,72,0,13.31,ZA,1712800708
367,siwa oasis,29.2041,25.5195,63.39,55,0,6.93,EG,1712800708
368,sisimiut,66.9395,-53.6735,20.5,78,100,5.84,GL,1712800708
369,kalabo,-14.97,22.6814,66.61,99,100,2.95,ZM,1712800709
370,howrah,22.5892,88.3103,80.6,83,75,4.61,IN,1712800576
371,pandan,14.0453,124.1694,84.13,66,83,8.63,PH,1712800709
372,gohana,29.1333,76.7,80.62,17,61,7.02,IN,1712800709
373,santa rosalia,27.3167,-112.2833,69.71,25,0,6.06,MX,1712800512
374,suzhou,31.3114,120.6181,58.51,85,100,4.52,CN,1712800710
375,castillos,-34.1667,-53.8333,57.51,60,100,10.36,UY,1712800710
376,watertown,42.3709,-71.1828,55.99,80,100,6.91,US,1712800710
377,yurimaguas,-5.9,-76.0833,77.18,80,15,0.43,PE,1712800711
378,sabinopolis,-18.6661,-43.0839,66.11,95,0,1.07,BR,1712800711
379,pirallahi,40.4723,50.333,53.74,79,97,21.12,AZ,1712800711
380,mount martha,-38.2755,145.0308,65.79,59,100,8.7,AU,1712800712
381,kostomuksha,64.571,30.5767,39.04,97,100,13.0,RU,1712800712
382,cam pha mines,21.0167,107.3,74.19,95,100,2.37,VN,1712800712
383,komotini,41.1228,25.3964,53.65,61,0,7.9,GR,1712800713
384,puerto aysen,-45.4,-72.7,37.72,94,2,2.66,CL,1712800690
385,durres,41.3231,19.4414,50.18,65,100,3.8,AL,1712800713
386,ambikapur,23.1167,83.2,78.64,40,100,2.08,IN,1712800713
387,dilling,12.05,29.65,74.75,11,0,10.54,SD,1712800714
388,saint-denis,48.9167,2.3333,55.18,69,75,6.91,FR,1712800714
389,dashitou,43.3067,128.5114,46.44,81,100,9.55,CN,1712800714
390,shevchenkove,49.6959,37.1735,60.85,57,0,2.89,UA,1712800715
391,port macquarie,-31.4333,152.9167,75.88,59,62,14.25,AU,1712800715
392,caras,-9.0467,-77.8114,63.36,94,76,2.68,PE,1712800715
393,oranjemund,-28.55,16.4333,59.68,84,0,7.94,NA,1712800716
394,conception bay south,47.4999,-52.9981,31.73,82,50,10.89,CA,1712800716
395,la paz,-16.5,-68.15,51.58,77,75,2.3,BO,1712800661
396,cidade velha,14.9167,-23.6167,72.07,68,20,12.66,CV,1712800717
397,hualien city,23.9769,121.6044,79.9,70,18,5.84,TW,1712800717
398,acarau,-2.8856,-40.12,78.22,90,100,7.31,BR,1712800578
399,severnoye,56.3491,78.3619,22.98,88,100,7.0,RU,1712800718
400,bafoulabe,13.8065,-10.8321,96.62,24,88,7.65,ML,1712800718
401,kristinestad,62.2743,21.376,38.1,80,75,18.21,FI,1712800718
402,mejit,10.2753,170.8646,79.97,77,100,22.28,MH,1712800719
403,ormara,25.2088,64.6357,77.99,73,100,1.99,PK,1712800719
404,lata,40.1629,-8.3327,53.92,79,100,4.27,PT,1712800719
405,el bolson,-41.9667,-71.5167,44.83,55,99,4.52,AR,1712800719
406,coquimbo,-29.9533,-71.3436,56.93,100,100,2.3,CL,1712800720
407,kremenets,50.0969,25.7246,54.79,80,100,11.81,UA,1712800720
408,holualoa,19.6228,-155.9522,78.64,81,40,10.36,US,1712800501
409,tandil,-37.3217,-59.1332,41.68,70,14,5.21,AR,1712800721
410,malvern,34.3623,-92.813,63.01,99,100,4.05,US,1712800721
411,massawa,15.6097,39.45,81.09,62,5,7.09,ER,1712800722
412,sedalia,38.7045,-93.2283,60.71,44,100,0.0,US,1712800722
413,the bottom,17.6259,-63.2492,77.13,78,23,24.34,BQ,1712800722
414,monte carmelo,-18.7247,-47.4986,69.42,84,56,2.3,BR,1712800481
415,mirialguda,16.8667,79.5833,80.53,70,4,6.89,IN,1712800723
416,lae,-6.7221,146.9847,86.67,67,93,6.53,PG,1712800723
417,serafimovich,49.5786,42.736,58.69,61,1,5.91,RU,1712800724
418,pacasmayo,-7.4006,-79.5714,72.68,78,22,11.79,PE,1712800724
419,prince george,53.9166,-122.753,49.44,48,100,13.8,CA,1712800724
420,timmins,48.4669,-81.3331,46.22,71,40,6.91,CA,1712800468
421,igarape miri,-1.975,-48.9597,75.0,99,100,2.06,BR,1712800725
422,den burg,53.0542,4.7972,55.96,84,100,20.71,NL,1712800726
423,solnechnyy,50.7214,136.6319,45.03,41,82,9.51,RU,1712800726
424,oriximina,-1.7656,-55.8661,76.46,96,26,2.73,BR,1712800601
425,newport,51.5877,-2.9984,55.51,95,100,16.75,GB,1712800727
426,pavlovka,52.6897,47.1405,45.59,88,8,3.06,RU,1712800727
427,jieshi,22.8134,115.8257,72.63,76,64,9.28,CN,1712800728
428,howard springs,-12.497,131.047,85.91,45,100,8.61,AU,1712800728
429,pangody,65.85,74.4859,-15.07,100,100,3.49,RU,1712800728
430,puerto baquerizo moreno,-0.9,-89.6,78.1,85,12,4.5,EC,1712800729
431,st. john's,47.5649,-52.7093,31.96,83,100,11.5,CA,1712800729
432,pisco,-13.7,-76.2167,71.65,83,0,9.22,PE,1712800458
433,al muwayh,22.4333,41.7583,69.6,23,36,7.02,SA,1712800730
434,port blair,11.6667,92.75,86.04,84,40,2.3,IN,1712800730
435,timimoun,29.2639,0.231,70.18,14,0,11.5,DZ,1712800730
436,jiamusi,46.8333,130.35,59.54,38,18,17.58,CN,1712800731
437,eirunepe,-6.6603,-69.8736,74.21,98,92,1.32,BR,1712800731
438,mathba,22.2855,89.9629,89.38,29,66,3.02,BD,1712800731
439,taoudenni,22.6783,-3.9836,86.34,10,0,17.81,ML,1712800731
440,leua,48.2156,18.6071,50.5,83,99,4.54,SK,1712800732
441,richards bay,-28.783,32.0377,66.63,81,94,20.47,ZA,1712800732
442,mangrol,21.1167,70.1167,77.77,72,80,5.68,IN,1712800733
443,condega,13.365,-86.3985,80.33,65,97,1.83,NI,1712800714
444,port augusta,-32.5,137.7667,67.77,50,0,10.02,AU,1712800733
445,kintinku,-5.8833,35.2333,67.73,97,100,2.64,TZ,1712800734
446,vikulovo,56.8167,70.6107,27.5,70,69,5.99,RU,1712800734
447,muang khong,14.1167,105.85,92.25,32,1,4.76,LA,1712800734
448,salida,37.7058,-121.0849,78.66,41,0,8.05,US,1712800735
449,teotitlan,18.1319,-97.0767,67.37,55,98,7.4,MX,1712800735
450,niafunke,15.9322,-3.9906,91.54,14,61,10.63,ML,1712800735
451,prince rupert,54.3161,-130.3201,46.09,95,100,20.71,CA,1712800512
452,platteville,42.7342,-90.4785,60.89,42,0,5.75,US,1712800516
453,forster,-32.1667,152.5167,74.37,60,84,14.38,AU,1712800547
454,yenotayevka,47.2456,47.0281,57.29,58,0,9.08,RU,1712800737
455,harnai,30.1005,67.9374,74.55,20,5,5.46,PK,1712800737
456,igarka,67.4667,86.5833,-15.99,97,49,8.99,RU,1712800737
457,karis,60.0718,23.6616,41.45,66,38,17.47,FI,1712800738
458,miyazaki,31.9111,131.4239,66.15,63,75,19.57,JP,1712800503
459,taos,36.4072,-105.5731,57.6,28,40,6.91,US,1712800738
460,jiaojiang,28.6803,121.4428,66.27,78,90,1.57,CN,1712800739
461,moanda,-1.5575,13.2178,72.46,99,100,1.12,GA,1712800739
462,nadi,-17.8,177.4167,86.0,70,20,12.66,FJ,1712800739
463,flin flon,54.7682,-101.865,41.32,77,100,9.28,CA,1712800740
464,kani keli,-12.9536,45.1033,79.86,78,100,3.04,YT,1712800740
465,gadzhiyevo,69.2551,33.3362,37.04,93,100,18.41,RU,1712800740
466,kayangel,8.0823,134.7173,82.71,77,45,14.83,PW,1712800740
467,lop buri,14.7981,100.654,92.98,51,100,0.69,TH,1712800741
468,korla,41.7597,86.1469,61.79,23,8,11.95,CN,1712800741
469,behompy,-23.2496,43.8557,74.14,94,80,4.97,MG,1712800741
470,maribo,54.7766,11.5002,46.98,91,68,17.63,DK,1712800742
471,san luis,-33.295,-66.3356,45.46,88,100,19.73,AR,1712800625
472,la mira,18.035,-102.3266,73.06,80,38,6.98,MX,1712800742
473,vail,32.0479,-110.712,74.91,15,0,3.0,US,1712800561
474,pathein,16.7833,94.7333,91.8,38,0,2.66,MM,1712800743
475,dryden,49.7833,-92.7503,50.29,53,20,3.44,CA,1712800744
476,china,25.7,-99.2333,78.64,19,0,21.63,MX,1712800744
477,tshabong,-26.05,22.45,61.57,46,0,7.56,BW,1712800744
478,cartagena del chaira,1.3349,-74.8429,75.49,88,27,0.76,CO,1712800745
479,luau,-10.7073,22.2247,66.25,98,100,0.78,AO,1712800745
480,red deer,52.2668,-113.802,47.59,29,0,4.61,CA,1712800746
481,san juan de miraflores,-12.1629,-76.9635,76.17,75,56,4.54,PE,1712800746
482,paracuru,-3.41,-39.0306,81.1,88,100,3.83,BR,1712800746
483,arar,30.9753,41.0381,60.82,48,0,11.5,SA,1712800746
484,luba,3.4568,8.5547,76.89,83,100,5.23,GQ,1712800747
485,fangshan,39.6983,115.9925,60.55,60,1,3.8,CN,1712800747
486,carolina beach,34.0352,-77.8936,67.01,89,100,13.29,US,1712800540
487,altai,46.3722,96.2583,36.14,50,73,11.43,MN,1712800748
488,rogers park,61.1981,-149.8492,42.06,72,0,6.91,US,1712800748
489,vadso,70.0744,29.7487,38.28,93,75,5.75,NO,1712800749
490,avezzano,42.0402,13.4388,50.86,82,2,0.49,IT,1712800749
491,male,4.1748,73.5089,84.15,84,40,0.0,MV,1712800749
492,ugoofaaru,5.6667,73.0,85.15,73,11,10.54,MV,1712800750
493,tidjikja,18.5564,-11.4271,83.93,17,0,9.71,MR,1712800750
494,delphos,40.8434,-84.3416,57.88,93,100,11.01,US,1712800750
495,vuktyl,63.8567,57.3094,23.36,94,100,6.46,RU,1712800751
496,cartagena,10.3997,-75.5144,82.02,78,0,8.05,CO,1712800618
497,laguna,38.421,-121.4238,80.58,38,0,0.0,US,1712800752
498,mogocha,53.7333,119.7667,45.19,35,2,4.34,RU,1712800752
499,tazacorte,28.629,-17.9293,67.17,64,100,11.5,ES,1712800752
500,emporia,38.4039,-96.1817,61.0,41,0,0.0,US,1712800752
501,sarangani,5.4033,125.4636,80.92,76,55,20.27,PH,1712800753
502,kirillov,59.863,38.3813,51.98,95,100,11.07,RU,1712800753
503,poronaysk,49.2167,143.1167,51.08,40,3,13.18,RU,1712800753
504,merizo village,13.2658,144.6691,88.36,84,89,17.76,GU,1712800754
505,taulaga,-11.0553,-171.0883,85.59,75,9,6.6,AS,1712800754
506,sinabang,2.4803,96.3801,83.68,75,100,1.99,ID,1712800754
507,aykhal,66.0,111.5,-11.27,94,100,20.22,RU,1712800754
508,urangan,-25.3,152.9,78.21,64,100,11.01,AU,1712800755
509,shingu,33.7333,135.9833,60.44,65,100,11.83,JP,1712800755
510,port isabel,26.0734,-97.2086,78.84,41,0,13.8,US,1712800755
511,medenine,33.355,10.5055,56.57,73,3,7.23,TN,1712800756
512,ta`u,-14.2336,-169.5144,84.63,76,26,9.15,AS,1712800756
513,jerome,42.7241,-114.5186,60.28,37,0,10.36,US,1712800756
514,kargopol',61.5071,38.9456,49.33,99,100,9.13,RU,1712800757
515,labrador city,52.9463,-66.9114,29.17,43,0,5.75,CA,1712800757
516,altay,47.8667,88.1167,39.54,90,100,3.65,CN,1712800757
517,agropoli,40.3469,14.9966,51.08,82,19,3.49,IT,1712800521
518,okhotsk,59.3833,143.3,30.22,75,10,10.42,RU,1712800758
519,cascais,38.6979,-9.4215,64.94,59,100,10.0,PT,1712800758
520,santo estevao,-12.4303,-39.2514,73.06,96,86,3.91,BR,1712800696
521,brady,31.1352,-99.3351,60.53,58,0,3.44,US,1712800759
522,bengkulu,-3.8004,102.2655,80.8,77,100,3.74,ID,1712800759
523,jidong,45.2167,131.0833,60.4,41,52,11.5,CN,1712800759
524,olinda,-8.0089,-34.8553,80.33,94,20,2.3,BR,1712800737
525,mountain home,43.133,-115.6912,60.28,41,0,10.36,US,1712800760
526,sanctuary point,-35.1114,150.629,70.99,49,1,11.83,AU,1712800760
527,sanming,26.2486,117.6186,70.63,73,99,1.03,CN,1712800761
528,kingscliff,-28.2667,153.5667,78.76,53,0,11.5,AU,1712800761
529,ad dabbah,18.05,30.95,70.88,18,4,10.2,SD,1712800761
530,lib,8.3122,167.3766,81.82,76,97,21.34,MH,1712800762
531,ancud,-41.8697,-73.8203,46.76,75,17,4.97,CL,1712800608
532,eduardo castex,-35.915,-64.2945,52.57,56,100,3.94,AR,1712800762
533,at taj,24.2049,23.2857,61.39,30,75,9.24,LY,1712800763
534,mil'kovo,55.6078,37.7956,57.34,75,100,7.72,RU,1712800763
535,paranaiba,-19.6772,-51.1908,73.94,89,67,2.04,BR,1712800647
536,masina,-4.3836,15.3914,80.94,78,20,0.0,CD,1712800763
537,nassau,40.7507,-73.5829,55.87,86,100,3.44,US,1712800764
538,maintirano,-18.0667,44.0167,79.23,83,99,6.29,MG,1712800764
539,fort bragg,35.139,-79.006,70.38,73,40,8.05,US,1712800764
540,pacific grove,36.6177,-121.9166,65.88,79,0,5.01,US,1712800765
541,aquiraz,-3.9014,-38.3911,81.18,88,100,0.98,BR,1712800765
542,brosteni,47.2333,25.7,53.94,99,36,3.94,RO,1712800765
543,nago,26.5881,127.9761,77.14,68,3,4.76,JP,1712800766
544,hollister,36.8525,-121.4016,78.58,47,0,5.75,US,1712800766
545,harbin,45.75,126.65,57.15,49,0,13.82,CN,1712800766
546,padang,-0.9492,100.3543,86.05,76,100,3.62,ID,1712800767
547,paoua,7.2427,16.4406,80.8,49,86,4.76,CF,1712800767
548,lospalos,-8.5186,127.0025,81.14,63,26,9.06,TL,1712800768
549,bel ombre,-4.6167,55.4167,80.44,89,40,3.44,SC,1712800768
550,izberbash,42.5696,47.8645,51.85,77,100,5.79,RU,1712800768
551,kotel,42.8833,26.45,38.75,61,0,3.91,BG,1712800769
552,byford,-32.2167,116.0,73.35,42,0,16.11,AU,1712800769
553,al hudaydah,14.7978,42.9545,82.47,80,8,7.92,YE,1712800769
554,okha,53.5739,142.9478,41.07,67,12,5.48,RU,1712800770
555,zeerust,-25.5369,26.0751,54.63,51,0,6.13,ZA,1712800770
556,gizo,-8.103,156.8419,84.04,74,98,8.21,SB,1712800771
557,newman,37.3138,-121.0208,79.03,59,89,5.01,US,1712800771
558,naze,28.3667,129.4833,70.72,61,77,4.18,JP,1712800771
559,kissidougou,9.1848,-10.0999,73.26,82,96,4.32,GN,1712800771
560,sydney,-33.8679,151.2073,73.35,54,40,4.0,AU,1712800491
561,namdrik,5.5994,168.1028,82.54,82,62,17.94,MH,1712800772
562,nyagan,62.1406,65.3936,6.21,98,89,3.18,RU,1712800684
563,port saint john's,-31.6229,29.5448,61.86,83,74,16.28,ZA,1712800772
564,malkerns,-26.5667,31.1833,61.21,90,100,1.32,SZ,1712800773
565,la junta,37.985,-103.5438,57.49,35,0,16.11,US,1712800542
566,usogorsk,63.4106,48.6872,34.66,100,100,12.97,RU,1712800773
567,verkhnevilyuysk,63.4453,120.3167,23.85,93,100,10.69,RU,1712800773
568,san jose del guaviare,2.5729,-72.6459,78.15,73,47,1.68,CO,1712800748
